b'|app=EXAMPLE_APP|device_id=LASS-Wuulong|tick=27378353|date=9/7/15|time=12:48:10|device=LinkItONE|values=2,100,0|gps=$GPGGA,124810.000,2448.0151,N,12059.5613,E,1,8,1.14,87.9,M,15.0,M,,*6D\r'
b'|app=EXAMPLE_APP|device_id=LASS-Wuulong|tick=27389609|date=9/7/15|time=12:48:21|device=LinkItONE|values=14,100,0|gps=$GPGGA,124821.000,2448.0151,N,12059.5613,E,1,8,1.14,87.9,M,15.0,M,,*6F\r'
b'|app=EXAMPLE_APP|device_id=LASS-Wuulong|tick=27400856|date=9/7/15|time=12:48:32|device=LinkItONE|values=0,100,0|gps=$GPGGA,124832.000,2448.0151,N,12059.5613,E,1,8,1.14,87.9,M,15.0,M,,*6D\r'
b'|app=EXAMPLE_APP|device_id=LASS-Wuulong|tick=27412094|date=9/7/15|time=12:48:43|device=LinkItONE|values=0,100,0|gps=$GPGGA,124843.000,2448.0151,N,12059.5613,E,1,8,1.14,87.9,M,15.0,M,,*6B\r'
b'|app=EXAMPLE_APP|device_id=LASS-Wuulong|tick=27423337|date=9/7/15|time=12:48:55|device=LinkItONE|values=0,100,0|gps=$GPGGA,124855.000,2448.0151,N,12059.5613,E,1,8,1.14,87.9,M,15.0,M,,*6C\r'
b'|app=EXAMPLE_APP|device_id=LASS-Wuulong|tick=27434583|date=9/7/15|time=12:49:6|device=LinkItONE|values=16,100,0|gps=$GPGGA,124906.000,2448.0151,N,12059.5613,E,1,8,1.14,87.9,M,15.0,M,,*6B\r'
b'|app=EXAMPLE_APP|device_id=LASS-Wuulong|tick=27445836|date=9/7/15|time=12:49:18|device=LinkItONE|values=2,100,0|gps=$GPGGA,124918.000,2448.0151,N,12059.5613,E,1,8,1.14,87.9,M,15.0,M,,*64\r'
b'|app=EXAMPLE_APP|device_id=LASS-Wuulong|tick=27457083|date=9/7/15|time=12:49:29|device=LinkItONE|values=0,100,0|gps=$GPGGA,124929.000,2448.0151,N,12059.5613,E,1,8,1.14,87.9,M,15.0,M,,*66\r'
b'|app=EXAMPLE_APP|device_id=LASS-Wuulong|tick=27468320|date=9/7/15|time=12:49:40|device=LinkItONE|values=2,100,0|gps=$GPGGA,124940.000,2448.0151,N,12059.5613,E,1,8,1.14,87.9,M,15.0,M,,*69\r'
b'|app=EXAMPLE_APP|device_id=LASS-Wuulong|tick=27479559|date=9/7/15|time=12:49:52|device=LinkItONE|values=0,100,0|gps=$GPGGA,124952.000,2448.0151,N,12059.5613,E,1,8,1.14,87.9,M,15.0,M,,*6A\r'
b'|app=EXAMPLE_APP|device_id=LASS-Wuulong|tick=27490815|date=9/7/15|time=12:50:3|device=LinkItONE|values=0,100,0|gps=$GPGGA,125003.000,2448.0151,N,12059.5613,E,1,8,1.14,87.9,M,15.0,M,,*66\r'
b'|app=EXAMPLE_APP|device_id=LASS-Wuulong|tick=27502067|date=9/7/15|time=12:50:14|device=LinkItONE|values=0,100,0|gps=$GPGGA,125014.000,2448.0206,N,12059.5640,E,1,8,1.14,78.7,M,15.0,M,,*69\r'
b'|app=EXAMPLE_APP|device_id=LASS-Wuulong|tick=27513319|date=9/7/15|time=12:50:25|device=LinkItONE|values=3,100,0|gps=$GPGGA,125025.000,2448.0206,N,12059.5640,E,1,8,1.47,78.7,M,15.0,M,,*6D\r'
b'|app=EXAMPLE_APP|device_id=LASS-Wuulong|tick=27524557|date=9/7/15|time=12:50:37|device=LinkItONE|values=0,100,0|gps=$GPGGA,125037.000,2448.0206,N,12059.5640,E,1,8,1.14,78.7,M,15.0,M,,*68\r'
b'|app=EXAMPLE_APP|device_id=LASS-Wuulong|tick=27535795|date=9/7/15|time=12:50:48|device=LinkItONE|values=0,100,0|gps=$GPGGA,125048.000,2448.0206,N,12059.5640,E,1,7,1.63,78.7,M,15.0,M,,*6F\r'
b'|app=EXAMPLE_APP|device_id=LASS-Wuulong|tick=27547052|date=9/7/15|time=12:50:59|device=LinkItONE|values=0,100,0|gps=$GPGGA,125059.000,2448.0206,N,12059.5640,E,1,7,1.63,78.7,M,15.0,M,,*6F\r'
b'|app=EXAMPLE_APP|device_id=LASS-Wuulong|tick=27558298|date=9/7/15|time=12:51:10|device=LinkItONE|values=1,100,0|gps=$GPGGA,125110.000,2448.0206,N,12059.5640,E,1,7,1.63,78.7,M,15.0,M,,*63\r'
b'|app=EXAMPLE_APP|device_id=LASS-Wuulong|tick=27569546|date=9/7/15|time=12:51:21|device=LinkItONE|values=9,100,0|gps=$GPGGA,125121.000,2448.0206,N,12059.5640,E,1,7,2.43,78.7,M,15.0,M,,*60\r'
b'|app=EXAMPLE_APP|device_id=LASS-Wuulong|tick=27580783|date=9/7/15|time=12:51:33|device=LinkItONE|values=0,100,0|gps=$GPGGA,125133.000,2448.0206,N,12059.5640,E,1,8,1.03,78.7,M,15.0,M,,*6B\r'
b'|app=EXAMPLE_APP|device_id=LASS-Wuulong|tick=27592021|date=9/7/15|time=12:51:44|device=LinkItONE|values=7,100,0|gps=$GPGGA,125144.000,2448.0206,N,12059.5640,E,1,9,0.94,78.7,M,15.0,M,,*65\r'
b'|app=EXAMPLE_APP|device_id=LASS-Wuulong|tick=27603281|date=9/7/15|time=12:51:55|device=LinkItONE|values=0,100,0|gps=$GPGGA,125155.000,2448.0206,N,12059.5640,E,1,8,1.03,78.7,M,15.0,M,,*6B\r'
b'|app=EXAMPLE_APP|device_id=LASS-Wuulong|tick=27614534|date=9/7/15|time=12:52:6|device=LinkItONE|values=3,100,0|gps=$GPGGA,125206.000,2448.0206,N,12059.5640,E,1,8,1.14,78.7,M,15.0,M,,*68\r'
b'|app=EXAMPLE_APP|device_id=LASS-Wuulong|tick=27625776|date=9/7/15|time=12:52:18|device=LinkItONE|values=9,100,0|gps=$GPGGA,125218.000,2448.0206,N,12059.5640,E,1,9,0.97,78.7,M,15.0,M,,*6C\r'
b'|app=EXAMPLE_APP|device_id=LASS-Wuulong|tick=27637019|date=9/7/15|time=12:52:29|device=LinkItONE|values=0,100,0|gps=$GPGGA,125229.000,2448.0206,N,12059.5640,E,1,9,0.97,78.7,M,15.0,M,,*6E\r'
b'|app=EXAMPLE_APP|device_id=LASS-Wuulong|tick=27648257|date=9/7/15|time=12:52:40|device=LinkItONE|values=0,100,0|gps=$GPGGA,125240.000,2448.0206,N,12059.5640,E,1,9,1.19,78.7,M,15.0,M,,*66\r'
b'|app=EXAMPLE_APP|device_id=LASS-Wuulong|tick=27659505|date=9/7/15|time=12:52:51|device=LinkItONE|values=12,100,0|gps=$GPGGA,125251.000,2448.0206,N,12059.5640,E,1,9,1.19,78.7,M,15.0,M,,*66\r'
b'|app=EXAMPLE_APP|device_id=LASS-Wuulong|tick=27670756|date=9/7/15|time=12:53:2|device=LinkItONE|values=6,100,0|gps=$GPGGA,125302.000,2448.0206,N,12059.5640,E,1,9,0.97,78.7,M,15.0,M,,*66\r'
b'|app=EXAMPLE_APP|device_id=LASS-Wuulong|tick=27681999|date=9/7/15|time=12:53:14|device=LinkItONE|values=3,100,0|gps=$GPGGA,125314.000,2448.0206,N,12059.5640,E,1,9,1.19,78.7,M,15.0,M,,*66\r'
b'|app=EXAMPLE_APP|device_id=LASS-Wuulong|tick=27693237|date=9/7/15|time=12:53:25|device=LinkItONE|values=5,100,0|gps=$GPGGA,125325.000,2448.0206,N,12059.5640,E,1,8,1.14,78.7,M,15.0,M,,*68\r'
b'|app=EXAMPLE_APP|device_id=LASS-Wuulong|tick=27704475|date=9/7/15|time=12:53:36|device=LinkItONE|values=1,100,0|gps=$GPGGA,125336.000,2448.0206,N,12059.5640,E,1,8,1.14,78.7,M,15.0,M,,*6A\r'
b'|app=EXAMPLE_APP|device_id=LASS-Wuulong|tick=27715726|date=9/7/15|time=12:53:47|device=LinkItONE|values=6,100,0|gps=$GPGGA,125347.000,2448.0206,N,12059.5640,E,1,8,1.49,78.7,M,15.0,M,,*64\r'
b'|app=EXAMPLE_APP|device_id=LASS-Wuulong|tick=27726978|date=9/7/15|time=12:53:59|device=LinkItONE|values=0,100,0|gps=$GPGGA,125359.000,2448.0206,N,12059.5640,E,1,9,0.97,78.7,M,15.0,M,,*68\r'
b'|app=EXAMPLE_APP|device_id=LASS-Wuulong|tick=27738221|date=9/7/15|time=12:54:10|device=LinkItONE|values=0,100,0|gps=$GPGGA,125410.000,2448.0206,N,12059.5640,E,1,9,0.97,78.7,M,15.0,M,,*62\r'
b'|app=EXAMPLE_APP|device_id=LASS-Wuulong|tick=27749458|date=9/7/15|time=12:54:21|device=LinkItONE|values=0,100,0|gps=$GPGGA,125421.000,2448.0206,N,12059.5640,E,1,9,0.97,78.7,M,15.0,M,,*60\r'
b'|app=EXAMPLE_APP|device_id=LASS-Wuulong|tick=27760697|date=9/7/15|time=12:54:32|device=LinkItONE|values=0,100,0|gps=$GPGGA,125432.000,2448.0206,N,12059.5640,E,1,9,0.97,78.7,M,15.0,M,,*62\r'
b'|app=EXAMPLE_APP|device_id=LASS-Wuulong|tick=27771943|date=9/7/15|time=12:54:43|device=LinkItONE|values=0,100,0|gps=$GPGGA,125443.000,2448.0206,N,12059.5640,E,1,8,1.14,78.7,M,15.0,M,,*6F\r'
b'|app=EXAMPLE_APP|device_id=LASS-Wuulong|tick=27783200|date=9/7/15|time=12:54:55|device=LinkItONE|values=11,100,0|gps=$GPGGA,125455.000,2448.0206,N,12059.5640,E,1,8,1.15,78.7,M,15.0,M,,*69\r'
b'|app=EXAMPLE_APP|device_id=LASS-Wuulong|tick=27794443|date=9/7/15|time=12:55:7|device=LinkItONE|values=6,100,0|gps=$GPGGA,125507.000,2448.0206,N,12059.5640,E,1,9,0.94,78.7,M,15.0,M,,*66\r'
b'|app=EXAMPLE_APP|device_id=LASS-Wuulong|tick=27805681|date=9/7/15|time=12:55:18|device=LinkItONE|values=0,100,0|gps=$GPGGA,125518.000,2448.0206,N,12059.5640,E,1,10,0.88,78.7,M,15.0,M,,*5D\r'
b'|app=EXAMPLE_APP|device_id=LASS-Wuulong|tick=27816923|date=9/7/15|time=12:55:29|device=LinkItONE|values=11,100,0|gps=$GPGGA,125529.000,2448.0206,N,12059.5640,E,1,10,0.88,78.7,M,15.0,M,,*5F\r'
b'|app=EXAMPLE_APP|device_id=LASS-Wuulong|tick=27828185|date=9/7/15|time=12:55:40|device=LinkItONE|values=0,100,0|gps=$GPGGA,125540.000,2448.0206,N,12059.5640,E,1,10,0.88,78.7,M,15.0,M,,*50\r'
b'|app=EXAMPLE_APP|device_id=LASS-Wuulong|tick=27839435|date=9/7/15|time=12:55:52|device=LinkItONE|values=13,100,0|gps=$GPGGA,125552.000,2448.0206,N,12059.5640,E,1,10,0.88,78.7,M,15.0,M,,*53\r'
b'|app=EXAMPLE_APP|device_id=LASS-Wuulong|tick=27850679|date=9/7/15|time=12:56:3|device=LinkItONE|values=0,100,0|gps=$GPGGA,125603.000,2448.0206,N,12059.5640,E,1,10,0.88,78.7,M,15.0,M,,*54\r'
b'|app=EXAMPLE_APP|device_id=LASS-Wuulong|tick=27861916|date=9/7/15|time=12:56:14|device=LinkItONE|values=0,100,0|gps=$GPGGA,125614.000,2448.0206,N,12059.5640,E,1,10,0.93,78.7,M,15.0,M,,*58\r'
b'|app=EXAMPLE_APP|device_id=LASS-Wuulong|tick=27873155|date=9/7/15|time=12:56:25|device=LinkItONE|values=0,100,0|gps=$GPGGA,125625.000,2448.0206,N,12059.5640,E,1,10,0.88,78.7,M,15.0,M,,*50\r'
b'|app=EXAMPLE_APP|device_id=LASS-Wuulong|tick=27884406|date=9/7/15|time=12:56:37|device=LinkItONE|values=7,100,0|gps=$GPGGA,125637.000,2448.0206,N,12059.5640,E,1,10,0.88,78.7,M,15.0,M,,*53\r'
b'|app=EXAMPLE_APP|device_id=LASS-Wuulong|tick=27895653|date=9/7/15|time=12:56:48|device=LinkItONE|values=0,100,0|gps=$GPGGA,125648.000,2448.0206,N,12059.5640,E,1,10,0.88,78.7,M,15.0,M,,*5B\r'
b'|app=EXAMPLE_APP|device_id=LASS-Wuulong|tick=27906891|date=9/7/15|time=12:56:59|device=LinkItONE|values=0,100,0|gps=$GPGGA,125659.000,2448.0206,N,12059.5640,E,1,9,0.94,78.7,M,15.0,M,,*6E\r'
b'|app=EXAMPLE_APP|device_id=LASS-Wuulong|tick=27918129|date=9/7/15|time=12:57:10|device=LinkItONE|values=0,100,0|gps=$GPGGA,125710.000,2448.0206,N,12059.5640,E,1,9,0.94,78.7,M,15.0,M,,*62\r'
b'|app=EXAMPLE_APP|device_id=LASS-Wuulong|tick=27929367|date=9/7/15|time=12:57:21|device=LinkItONE|values=0,100,0|gps=$GPGGA,125721.000,2448.0206,N,12059.5640,E,1,9,0.94,78.7,M,15.0,M,,*60\r'
b'|app=EXAMPLE_APP|device_id=LASS-Wuulong|tick=27940620|date=9/7/15|time=12:57:33|device=LinkItONE|values=1,100,0|gps=$GPGGA,125733.000,2448.0206,N,12059.5640,E,1,8,1.51,78.7,M,15.0,M,,*6A\r'
b'|app=EXAMPLE_APP|device_id=LASS-Wuulong|tick=27951866|date=9/7/15|time=12:57:44|device=LinkItONE|values=0,100,0|gps=$GPGGA,125744.000,2448.0206,N,12059.5640,E,1,7,1.64,78.7,M,15.0,M,,*63\r'
b'|app=EXAMPLE_APP|device_id=LASS-Wuulong|tick=27963105|date=9/7/15|time=12:57:55|device=LinkItONE|values=0,100,0|gps=$GPGGA,125755.000,2448.0206,N,12059.5640,E,1,7,1.64,78.7,M,15.0,M,,*63\r'
b'|app=EXAMPLE_APP|device_id=LASS-Wuulong|tick=27974342|date=9/7/15|time=12:58:6|device=LinkItONE|values=7,100,0|gps=$GPGGA,125806.000,2448.0262,N,12059.5657,E,1,8,1.15,77.9,M,15.0,M,,*66\r'
b'|app=EXAMPLE_APP|device_id=LASS-Wuulong|tick=27985580|date=9/7/15|time=12:58:17|device=LinkItONE|values=0,100,0|gps=$GPGGA,125817.000,2448.0262,N,12059.5657,E,1,8,1.15,77.9,M,15.0,M,,*66\r'
b'|app=EXAMPLE_APP|device_id=LASS-Wuulong|tick=27996832|date=9/7/15|time=12:58:29|device=LinkItONE|values=0,100,0|gps=$GPGGA,125829.000,2448.0262,N,12059.5657,E,1,8,1.15,77.9,M,15.0,M,,*6B\r'
b'|app=EXAMPLE_APP|device_id=LASS-Wuulong|tick=28008079|date=9/7/15|time=12:58:40|device=LinkItONE|values=0,100,0|gps=$GPGGA,125840.000,2448.0262,N,12059.5657,E,1,8,1.14,77.9,M,15.0,M,,*65\r'
b'|app=EXAMPLE_APP|device_id=LASS-Wuulong|tick=28019326|date=9/7/15|time=12:58:51|device=LinkItONE|values=4,100,0|gps=$GPGGA,125851.000,2448.0262,N,12059.5657,E,1,7,1.64,77.9,M,15.0,M,,*6D\r'
b'|app=EXAMPLE_APP|device_id=LASS-Wuulong|tick=28030569|date=9/7/15|time=12:59:2|device=LinkItONE|values=0,100,0|gps=$GPGGA,125902.000,2448.0262,N,12059.5657,E,1,7,1.64,77.9,M,15.0,M,,*6A\r'
b'|app=EXAMPLE_APP|device_id=LASS-Wuulong|tick=28041817|date=9/7/15|time=12:59:14|device=LinkItONE|values=0,100,0|gps=$GPGGA,125914.000,2448.0262,N,12059.5657,E,1,8,1.15,77.9,M,15.0,M,,*64\r'
b'|app=EXAMPLE_APP|device_id=LASS-Wuulong|tick=28053068|date=9/7/15|time=12:59:25|device=LinkItONE|values=0,100,0|gps=$GPGGA,125925.000,2448.0262,N,12059.5657,E,1,9,0.93,77.9,M,15.0,M,,*68\r'
b'|app=EXAMPLE_APP|device_id=LASS-Wuulong|tick=28064320|date=9/7/15|time=12:59:36|device=LinkItONE|values=7,100,0|gps=$GPGGA,125936.000,2448.0262,N,12059.5657,E,1,9,0.98,77.9,M,15.0,M,,*61\r'
b'|app=EXAMPLE_APP|device_id=LASS-Wuulong|tick=28075562|date=9/7/15|time=12:59:47|device=LinkItONE|values=0,100,0|gps=$GPGGA,125947.000,2448.0262,N,12059.5657,E,1,8,1.15,77.9,M,15.0,M,,*62\r'
b'|app=EXAMPLE_APP|device_id=LASS-Wuulong|tick=28086806|date=9/7/15|time=12:59:59|device=LinkItONE|values=0,100,0|gps=$GPGGA,125959.000,2448.0262,N,12059.5657,E,1,7,1.64,77.9,M,15.0,M,,*64\r'
b'|app=EXAMPLE_APP|device_id=LASS-Wuulong|tick=28098061|date=9/7/15|time=13:0:10|device=LinkItONE|values=9,100,0|gps=$GPGGA,130010.000,2448.0262,N,12059.5657,E,1,8,1.15,77.9,M,15.0,M,,*6D\r'
b'|app=EXAMPLE_APP|device_id=LASS-Wuulong|tick=28109308|date=9/7/15|time=13:0:21|device=LinkItONE|values=0,100,0|gps=$GPGGA,130021.000,2448.0262,N,12059.5657,E,1,9,1.03,77.9,M,15.0,M,,*69\r'
b'|app=EXAMPLE_APP|device_id=LASS-Wuulong|tick=28120555|date=9/7/15|time=13:0:32|device=LinkItONE|values=0,100,0|gps=$GPGGA,130032.000,2448.0262,N,12059.5657,E,1,9,1.03,77.9,M,15.0,M,,*6B\r'
b'|app=EXAMPLE_APP|device_id=LASS-Wuulong|tick=28131794|date=9/7/15|time=13:0:43|device=LinkItONE|values=4,100,0|gps=$GPGGA,130043.000,2448.0262,N,12059.5657,E,1,8,1.15,77.9,M,15.0,M,,*6B\r'
b'|app=EXAMPLE_APP|device_id=LASS-Wuulong|tick=28143031|date=9/7/15|time=13:0:56|device=LinkItONE|values=0,100,0|gps=$GPGGA,130056.000,2448.0262,N,12059.5657,E,1,7,1.64,77.9,M,15.0,M,,*66\r'
b'|app=EXAMPLE_APP|device_id=LASS-Wuulong|tick=28154292|date=9/7/15|time=13:1:7|device=LinkItONE|values=0,100,0|gps=$GPGGA,130107.000,2448.0262,N,12059.5657,E,1,7,1.64,77.9,M,15.0,M,,*63\r'
b'|app=EXAMPLE_APP|device_id=LASS-Wuulong|tick=28165539|date=9/7/15|time=13:1:18|device=LinkItONE|values=4,100,0|gps=$GPGGA,130118.000,2448.0262,N,12059.5657,E,1,7,2.49,77.9,M,15.0,M,,*61\r'
b'|app=EXAMPLE_APP|device_id=LASS-Wuulong|tick=28176787|date=9/7/15|time=13:1:29|device=LinkItONE|values=11,100,0|gps=$GPGGA,130129.000,2448.0262,N,12059.5657,E,1,7,2.49,77.9,M,15.0,M,,*63\r'
b'|app=EXAMPLE_APP|device_id=LASS-Wuulong|tick=28188024|date=9/7/15|time=13:1:40|device=LinkItONE|values=0,100,0|gps=$GPGGA,130140.000,2448.0262,N,12059.5657,E,1,7,1.64,77.9,M,15.0,M,,*60\r'
b'|app=EXAMPLE_APP|device_id=LASS-Wuulong|tick=28199263|date=9/7/15|time=13:1:52|device=LinkItONE|values=9,100,0|gps=$GPGGA,130152.000,2448.0262,N,12059.5657,E,1,9,1.06,77.9,M,15.0,M,,*69\r'
b'|app=EXAMPLE_APP|device_id=LASS-Wuulong|tick=28210510|date=9/7/15|time=13:2:3|device=LinkItONE|values=0,100,0|gps=$GPGGA,130203.000,2448.0262,N,12059.5657,E,1,9,0.98,77.9,M,15.0,M,,*68\r'
b'|app=EXAMPLE_APP|device_id=LASS-Wuulong|tick=28221762|date=9/7/15|time=13:2:14|device=LinkItONE|values=0,100,0|gps=$GPGGA,130214.000,2448.0262,N,12059.5657,E,1,9,0.98,77.9,M,15.0,M,,*6E\r'
b'|app=EXAMPLE_APP|device_id=LASS-Wuulong|tick=28233009|date=9/7/15|time=13:2:25|device=LinkItONE|values=0,100,0|gps=$GPGGA,130225.000,2448.0262,N,12059.5657,E,1,8,1.15,77.9,M,15.0,M,,*69\r'
b'|app=EXAMPLE_APP|device_id=LASS-Wuulong|tick=28244247|date=9/7/15|time=13:2:37|device=LinkItONE|values=3,100,0|gps=$GPGGA,130237.000,2448.0199,N,12059.5654,E,1,8,1.15,73.9,M,15.0,M,,*6A\r'
b'|app=EXAMPLE_APP|device_id=LASS-Wuulong|tick=28255485|date=9/7/15|time=13:2:48|device=LinkItONE|values=0,100,0|gps=$GPGGA,130248.000,2448.0199,N,12059.5654,E,1,8,1.15,73.9,M,15.0,M,,*62\r'
b'|app=EXAMPLE_APP|device_id=LASS-Wuulong|tick=28266736|date=9/7/15|time=13:2:59|device=LinkItONE|values=28,100,0|gps=$GPGGA,130259.000,2448.0199,N,12059.5654,E,1,8,1.15,73.9,M,15.0,M,,*62\r'
b'|app=EXAMPLE_APP|device_id=LASS-Wuulong|tick=28277989|date=9/7/15|time=13:3:10|device=LinkItONE|values=0,100,0|gps=$GPGGA,130310.000,2448.0199,N,12059.5654,E,1,8,1.15,73.9,M,15.0,M,,*6E\r'
b'|app=EXAMPLE_APP|device_id=LASS-Wuulong|tick=28289231|date=9/7/15|time=13:3:21|device=LinkItONE|values=14,100,0|gps=$GPGGA,130321.000,2448.0199,N,12059.5654,E,1,8,1.15,73.9,M,15.0,M,,*6C\r'
b'|app=EXAMPLE_APP|device_id=LASS-Wuulong|tick=28300469|date=9/7/15|time=13:3:33|device=LinkItONE|values=4,100,0|gps=$GPGGA,130333.000,2448.0199,N,12059.5654,E,1,8,1.54,73.9,M,15.0,M,,*6A\r'
b'|app=EXAMPLE_APP|device_id=LASS-Wuulong|tick=28311707|date=9/7/15|time=13:3:44|device=LinkItONE|values=0,100,0|gps=$GPGGA,130344.000,2448.0199,N,12059.5654,E,1,8,1.15,73.9,M,15.0,M,,*6F\r'
b'|app=EXAMPLE_APP|device_id=LASS-Wuulong|tick=28322954|date=9/7/15|time=13:3:55|device=LinkItONE|values=15,100,0|gps=$GPGGA,130355.000,2448.0199,N,12059.5654,E,1,8,1.15,73.9,M,15.0,M,,*6F\r'
b'|app=EXAMPLE_APP|device_id=LASS-Wuulong|tick=28334206|date=9/7/15|time=13:4:6|device=LinkItONE|values=7,100,0|gps=$GPGGA,130406.000,2448.0199,N,12059.5654,E,1,7,1.63,73.9,M,15.0,M,,*60\r'
b'|app=EXAMPLE_APP|device_id=LASS-Wuulong|tick=28345449|date=9/7/15|time=13:4:18|device=LinkItONE|values=7,100,0|gps=$GPGGA,130418.000,2448.0260,N,12059.5655,E,1,7,2.47,75.4,M,15.0,M,,*65\r'
b'|app=EXAMPLE_APP|device_id=LASS-Wuulong|tick=28356686|date=9/7/15|time=13:4:29|device=LinkItONE|values=0,100,0|gps=$GPGGA,130429.000,2448.0260,N,12059.5655,E,1,7,2.47,75.4,M,15.0,M,,*67\r'
b'|app=EXAMPLE_APP|device_id=LASS-Wuulong|tick=28367933|date=9/7/15|time=13:4:40|device=LinkItONE|values=0,100,0|gps=$GPGGA,130440.000,2448.0260,N,12059.5655,E,1,10,0.96,75.4,M,15.0,M,,*50\r'
b'|app=EXAMPLE_APP|device_id=LASS-Wuulong|tick=28379185|date=9/7/15|time=13:4:51|device=LinkItONE|values=0,100,0|gps=$GPGGA,130451.000,2448.0260,N,12059.5655,E,1,9,1.07,75.4,M,15.0,M,,*61\r'
b'|app=EXAMPLE_APP|device_id=LASS-Wuulong|tick=28390433|date=9/7/15|time=13:5:2|device=LinkItONE|values=0,100,0|gps=$GPGGA,130502.000,2448.0260,N,12059.5655,E,1,9,1.01,75.4,M,15.0,M,,*60\r'
b'|app=EXAMPLE_APP|device_id=LASS-Wuulong|tick=28401674|date=9/7/15|time=13:5:14|device=LinkItONE|values=11,100,0|gps=$GPGGA,130514.000,2448.0260,N,12059.5655,E,1,10,0.97,75.4,M,15.0,M,,*51\r'
b'|app=EXAMPLE_APP|device_id=LASS-Wuulong|tick=28412913|date=9/7/15|time=13:5:25|device=LinkItONE|values=2,100,0|gps=$GPGGA,130525.000,2448.0260,N,12059.5655,E,1,10,0.97,75.4,M,15.0,M,,*53\r'
b'|app=EXAMPLE_APP|device_id=LASS-Wuulong|tick=28424150|date=9/7/15|time=13:5:36|device=LinkItONE|values=0,100,0|gps=$GPGGA,130536.000,2448.0260,N,12059.5655,E,1,11,0.93,75.4,M,15.0,M,,*54\r'
b'|app=EXAMPLE_APP|device_id=LASS-Wuulong|tick=28435403|date=9/7/15|time=13:5:47|device=LinkItONE|values=11,100,0|gps=$GPGGA,130547.000,2448.0260,N,12059.5655,E,1,9,1.22,75.4,M,15.0,M,,*60\r'
b'|app=EXAMPLE_APP|device_id=LASS-Wuulong|tick=28446654|date=9/7/15|time=13:5:58|device=LinkItONE|values=2,100,0|gps=$GPGGA,130558.000,2448.0208,N,12059.5686,E,1,9,1.22,76.7,M,15.0,M,,*6E\r'
b'|app=EXAMPLE_APP|device_id=LASS-Wuulong|tick=28457898|date=9/7/15|time=13:6:10|device=LinkItONE|values=28,100,0|gps=$GPGGA,130610.000,2448.0208,N,12059.5686,E,1,8,1.45,76.7,M,15.0,M,,*61\r'
b'|app=EXAMPLE_APP|device_id=LASS-Wuulong|tick=28469135|date=9/7/15|time=13:6:21|device=LinkItONE|values=3,100,0|gps=$GPGGA,130621.000,2448.0208,N,12059.5686,E,1,7,1.54,76.7,M,15.0,M,,*6C\r'
b'|app=EXAMPLE_APP|device_id=LASS-Wuulong|tick=28480374|date=9/7/15|time=13:6:32|device=LinkItONE|values=0,100,0|gps=$GPGGA,130632.000,2448.0208,N,12059.5686,E,1,9,1.55,76.7,M,15.0,M,,*61\r'
b'|app=EXAMPLE_APP|device_id=LASS-Wuulong|tick=28491625|date=9/7/15|time=13:6:44|device=LinkItONE|values=0,100,0|gps=$GPGGA,130644.000,2448.0208,N,12059.5686,E,1,8,1.47,76.7,M,15.0,M,,*62\r'
b'|app=EXAMPLE_APP|device_id=LASS-Wuulong|tick=28502871|date=9/7/15|time=13:6:56|device=LinkItONE|values=0,100,0|gps=$GPGGA,130656.000,2448.0208,N,12059.5686,E,1,9,1.45,76.7,M,15.0,M,,*62\r'
b'|app=EXAMPLE_APP|device_id=LASS-Wuulong|tick=28514115|date=9/7/15|time=13:7:7|device=LinkItONE|values=5,100,0|gps=$GPGGA,130707.000,2448.0208,N,12059.5686,E,1,10,1.07,76.7,M,15.0,M,,*59\r'
b'|app=EXAMPLE_APP|device_id=LASS-Wuulong|tick=28525357|date=9/7/15|time=13:7:18|device=LinkItONE|values=25,100,0|gps=$GPGGA,130718.000,2448.0208,N,12059.5686,E,1,11,0.86,76.7,M,15.0,M,,*5E\r'
b'|app=EXAMPLE_APP|device_id=LASS-Wuulong|tick=28536595|date=9/7/15|time=13:7:29|device=LinkItONE|values=0,100,0|gps=$GPGGA,130729.000,2448.0208,N,12059.5686,E,1,9,1.45,76.7,M,15.0,M,,*6B\r'
b'|app=EXAMPLE_APP|device_id=LASS-Wuulong|tick=28547842|date=9/7/15|time=13:7:40|device=LinkItONE|values=0,100,0|gps=$GPGGA,130740.000,2448.0208,N,12059.5686,E,1,10,1.07,76.7,M,15.0,M,,*5A\r'
b'|app=EXAMPLE_APP|device_id=LASS-Wuulong|tick=28559095|date=9/7/15|time=13:7:52|device=LinkItONE|values=27,100,0|gps=$GPGGA,130752.000,2448.0208,N,12059.5686,E,1,9,1.44,76.7,M,15.0,M,,*66\r'
b'|app=EXAMPLE_APP|device_id=LASS-Wuulong|tick=28570341|date=9/7/15|time=13:8:3|device=LinkItONE|values=0,100,0|gps=$GPGGA,130803.000,2448.0208,N,12059.5686,E,1,10,0.98,76.7,M,15.0,M,,*55\r'
b'|app=EXAMPLE_APP|device_id=LASS-Wuulong|tick=28581580|date=9/7/15|time=13:8:14|device=LinkItONE|values=5,100,0|gps=$GPGGA,130814.000,2448.0208,N,12059.5686,E,1,9,1.44,76.7,M,15.0,M,,*6B\r'
b'|app=EXAMPLE_APP|device_id=LASS-Wuulong|tick=28592836|date=9/7/15|time=13:8:25|device=LinkItONE|values=0,100,0|gps=$GPGGA,130825.000,2448.0208,N,12059.5686,E,1,10,0.98,76.7,M,15.0,M,,*51\r'
b'|app=EXAMPLE_APP|device_id=LASS-Wuulong|tick=28604084|date=9/7/15|time=13:8:36|device=LinkItONE|values=9,100,0|gps=$GPGGA,130836.000,2448.0208,N,12059.5686,E,1,9,2.21,76.7,M,15.0,M,,*6B\r'
b'|app=EXAMPLE_APP|device_id=LASS-Wuulong|tick=28615334|date=9/7/15|time=13:8:48|device=LinkItONE|values=0,100,0|gps=$GPGGA,130848.000,2448.0208,N,12059.5686,E,1,11,0.85,76.7,M,15.0,M,,*57\r'
b'|app=EXAMPLE_APP|device_id=LASS-Wuulong|tick=28626577|date=9/7/15|time=13:8:59|device=LinkItONE|values=0,100,0|gps=$GPGGA,130859.000,2448.0208,N,12059.5686,E,1,9,1.44,76.7,M,15.0,M,,*62\r'
b'|app=EXAMPLE_APP|device_id=LASS-Wuulong|tick=28637819|date=9/7/15|time=13:9:10|device=LinkItONE|values=0,100,0|gps=$GPGGA,130910.000,2448.0208,N,12059.5686,E,1,9,1.44,76.7,M,15.0,M,,*6E\r'
b'|app=EXAMPLE_APP|device_id=LASS-Wuulong|tick=28649076|date=9/7/15|time=13:9:21|device=LinkItONE|values=0,100,0|gps=$GPGGA,130921.000,2448.0208,N,12059.5686,E,1,9,1.43,76.7,M,15.0,M,,*6B\r'
b'|app=EXAMPLE_APP|device_id=LASS-Wuulong|tick=28660323|date=9/7/15|time=13:9:33|device=LinkItONE|values=0,100,0|gps=$GPGGA,130933.000,2448.0208,N,12059.5686,E,1,8,1.46,76.7,M,15.0,M,,*6C\r'
b'|app=EXAMPLE_APP|device_id=LASS-Wuulong|tick=28671570|date=9/7/15|time=13:9:44|device=LinkItONE|values=0,100,0|gps=$GPGGA,130944.000,2448.0208,N,12059.5686,E,1,10,0.97,76.7,M,15.0,M,,*58\r'
b'|app=EXAMPLE_APP|device_id=LASS-Wuulong|tick=28682808|date=9/7/15|time=13:9:55|device=LinkItONE|values=10,100,0|gps=$GPGGA,130955.000,2448.0208,N,12059.5686,E,1,11,0.89,76.7,M,15.0,M,,*56\r'
b'|app=EXAMPLE_APP|device_id=LASS-Wuulong|tick=28694046|date=9/7/15|time=13:10:6|device=LinkItONE|values=44,100,0|gps=$GPGGA,131006.000,2448.0208,N,12059.5686,E,1,10,1.32,76.7,M,15.0,M,,*58\r'
b'|app=EXAMPLE_APP|device_id=LASS-Wuulong|tick=28705307|date=9/7/15|time=13:10:17|device=LinkItONE|values=5,100,0|gps=$GPGGA,131017.000,2448.0208,N,12059.5686,E,1,9,1.43,76.7,M,15.0,M,,*66\r'
b'|app=EXAMPLE_APP|device_id=LASS-Wuulong|tick=28716555|date=9/7/15|time=13:10:29|device=LinkItONE|values=0,100,0|gps=$GPGGA,131029.000,2448.0253,N,12059.5722,E,1,10,1.16,71.2,M,15.0,M,,*50\r'
b'|app=EXAMPLE_APP|device_id=LASS-Wuulong|tick=28727802|date=9/7/15|time=13:10:40|device=LinkItONE|values=2,100,0|gps=$GPGGA,131040.000,2448.0253,N,12059.5722,E,1,10,1.16,71.2,M,15.0,M,,*5F\r'
b'|app=EXAMPLE_APP|device_id=LASS-Wuulong|tick=28739040|date=9/7/15|time=13:10:51|device=LinkItONE|values=0,100,0|gps=$GPGGA,131051.000,2448.0253,N,12059.5722,E,1,10,1.16,71.2,M,15.0,M,,*5F\r'
b'|app=EXAMPLE_APP|device_id=LASS-Wuulong|tick=28750278|date=9/7/15|time=13:11:2|device=LinkItONE|values=27,100,0|gps=$GPGGA,131102.000,2448.0253,N,12059.5722,E,1,10,1.07,71.2,M,15.0,M,,*58\r'
b'|app=EXAMPLE_APP|device_id=LASS-Wuulong|tick=28761534|date=9/7/15|time=13:11:14|device=LinkItONE|values=16,100,0|gps=$GPGGA,131114.000,2448.0253,N,12059.5722,E,1,10,1.16,71.2,M,15.0,M,,*5F\r'
