b'|app=EXAMPLE_APP|device_id=LASS-Example|tick=49484274|date=15/7/15|time=12:15:18|device=LinkItONE|values=47.00,100.00,1.00,856.27,544.52|gps=$GPGGA,121518.000,2447.9863,N,12059.5843,E,1,8,1.53,40.2,M,15.0,M,,*6B\r'
b'|app=EXAMPLE_APP|device_id=LASS-Example|tick=49519874|date=15/7/15|time=12:15:53|device=LinkItONE|values=5.00,100.00,1.00,856.27,109.88|gps=$GPGGA,121553.000,2447.9863,N,12059.5843,E,1,12,0.80,40.2,M,15.0,M,,*50\r'
b'|app=EXAMPLE_APP|device_id=LASS-Example|tick=49553616|date=15/7/15|time=12:16:27|device=LinkItONE|values=0.00,100.00,1.00,840.41,4739.11|gps=$GPGGA,121627.000,2447.9863,N,12059.5843,E,1,11,0.83,40.2,M,15.0,M,,*50\r'
b'|app=EXAMPLE_APP|device_id=LASS-Example|tick=49589816|date=15/7/15|time=12:17:3|device=LinkItONE|values=0.00,100.00,1.00,840.41,243.89|gps=$GPGGA,121703.000,2448.0098,N,12059.6604,E,1,13,0.76,44.0,M,15.0,M,,*5D\r'
b'|app=EXAMPLE_APP|device_id=LASS-Example|tick=49625375|date=15/7/15|time=12:17:38|device=LinkItONE|values=0.00,100.00,1.00,840.41,476.57|gps=$GPGGA,121738.000,2448.0455,N,12059.6823,E,1,13,0.75,47.6,M,15.0,M,,*5D\r'
b'|app=EXAMPLE_APP|device_id=LASS-Example|tick=49660026|date=15/7/15|time=12:18:14|device=LinkItONE|values=0.00,100.00,1.00,840.41,416.66|gps=$GPGGA,121814.000,2448.0625,N,12059.6908,E,1,12,0.80,53.3,M,15.0,M,,*5A\r'
b'|app=EXAMPLE_APP|device_id=LASS-Example|tick=49697545|date=15/7/15|time=12:18:51|device=LinkItONE|values=0.00,100.00,1.00,840.41,226.27|gps=$GPGGA,121851.000,2448.0757,N,12059.7024,E,1,12,0.80,55.2,M,15.0,M,,*5E\r'
b'|app=EXAMPLE_APP|device_id=LASS-Example|tick=49731283|date=15/7/15|time=12:19:25|device=LinkItONE|values=0.00,66.00,1.00,840.41,1335.08|gps=$GPGGA,121925.000,2448.1132,N,12059.7158,E,1,12,0.80,55.7,M,15.0,M,,*57\r'
b'|app=EXAMPLE_APP|device_id=LASS-Example|tick=49767820|date=15/7/15|time=12:20:1|device=LinkItONE|values=0.00,66.00,1.00,840.41,590.01|gps=$GPGGA,122001.000,2448.2007,N,12059.7596,E,1,12,0.78,56.6,M,15.0,M,,*5C\r'
b'|app=EXAMPLE_APP|device_id=LASS-Example|tick=49802585|date=15/7/15|time=12:20:36|device=LinkItONE|values=13.00,66.00,1.00,840.41,754.68|gps=$GPGGA,122036.000,2448.1500,N,12059.8917,E,1,12,0.78,56.3,M,15.0,M,,*56\r'
b'|app=EXAMPLE_APP|device_id=LASS-Example|tick=49836576|date=15/7/15|time=12:21:10|device=LinkItONE|values=0.00,66.00,1.00,840.41,1424.40|gps=$GPGGA,122110.000,2448.0942,N,12100.0293,E,1,14,0.71,50.5,M,15.0,M,,*55\r'
b'|app=EXAMPLE_APP|device_id=LASS-Example|tick=49871393|date=15/7/15|time=12:21:45|device=LinkItONE|values=39.00,66.00,1.00,840.41,2881.90|gps=$GPGGA,122145.000,2448.1019,N,12100.1872,E,1,13,0.80,38.7,M,15.0,M,,*52\r'
b'|app=EXAMPLE_APP|device_id=LASS-Example|tick=49907067|date=15/7/15|time=12:22:20|device=LinkItONE|values=0.00,66.00,1.00,840.41,3085.20|gps=$GPGGA,122220.000,2448.1420,N,12100.3129,E,1,14,0.75,37.8,M,15.0,M,,*54\r'
b'|app=EXAMPLE_APP|device_id=LASS-Example|tick=49941358|date=15/7/15|time=12:22:55|device=LinkItONE|values=0.00,66.00,1.00,840.41,1595.71|gps=$GPGGA,122255.000,2448.2523,N,12100.3833,E,1,15,0.71,35.9,M,15.0,M,,*53\r'
b'|app=EXAMPLE_APP|device_id=LASS-Example|tick=49977646|date=15/7/15|time=12:23:31|device=LinkItONE|values=0.00,66.00,1.00,840.41,3797.18|gps=$GPGGA,122331.000,2448.3495,N,12100.4580,E,1,12,0.96,39.7,M,15.0,M,,*53\r'
b'|app=EXAMPLE_APP|device_id=LASS-Example|tick=50014044|date=15/7/15|time=12:24:8|device=LinkItONE|values=0.00,66.00,1.00,840.41,3416.65|gps=$GPGGA,122408.000,2448.4305,N,12100.4864,E,1,14,0.75,40.1,M,15.0,M,,*53\r'
b'|app=EXAMPLE_APP|device_id=LASS-Example|tick=50048436|date=15/7/15|time=12:24:42|device=LinkItONE|values=0.00,66.00,1.00,840.41,2940.14|gps=$GPGGA,122442.000,2448.4605,N,12100.3400,E,1,14,0.75,43.1,M,15.0,M,,*52\r'
b'|app=EXAMPLE_APP|device_id=LASS-Example|tick=50082916|date=15/7/15|time=12:25:17|device=LinkItONE|values=0.00,66.00,1.00,840.41,2622.21|gps=$GPGGA,122517.000,2448.4517,N,12100.1892,E,1,13,0.84,47.9,M,15.0,M,,*53\r'
b'|app=EXAMPLE_APP|device_id=LASS-Example|tick=50117479|date=15/7/15|time=12:25:51|device=LinkItONE|values=0.00,66.00,1.00,840.41,7820.47|gps=$GPGGA,122551.000,2448.4229,N,12100.0552,E,1,14,0.73,46.1,M,15.0,M,,*5D\r'
b'|app=EXAMPLE_APP|device_id=LASS-Example|tick=50151548|date=15/7/15|time=12:26:25|device=LinkItONE|values=0.00,66.00,1.00,840.41,3599.30|gps=$GPGGA,122625.000,2448.4030,N,12059.9085,E,1,13,0.79,47.5,M,15.0,M,,*54\r'
b'|app=EXAMPLE_APP|device_id=LASS-Example|tick=50187126|date=15/7/15|time=12:27:1|device=LinkItONE|values=0.00,66.00,1.00,840.41,1805.22|gps=$GPGGA,122701.000,2448.5440,N,12059.9111,E,1,15,0.71,45.8,M,15.0,M,,*5C\r'
b'|app=EXAMPLE_APP|device_id=LASS-Example|tick=50222178|date=15/7/15|time=12:27:36|device=LinkItONE|values=0.00,66.00,1.00,840.41,11444.78|gps=$GPGGA,122736.000,2448.6957,N,12059.8724,E,1,17,0.62,37.3,M,15.0,M,,*5F\r'
b'|app=EXAMPLE_APP|device_id=LASS-Example|tick=50256334|date=15/7/15|time=12:28:10|device=LinkItONE|values=0.00,66.00,1.00,840.41,4647.01|gps=$GPGGA,122810.000,2448.7577,N,12059.7653,E,1,15,0.70,29.2,M,14.9,M,,*52\r'
b'|app=EXAMPLE_APP|device_id=LASS-Example|tick=50291598|date=15/7/15|time=12:28:45|device=LinkItONE|values=0.00,66.00,1.00,840.41,6555.51|gps=$GPGGA,122845.000,2448.8086,N,12059.6151,E,1,16,0.65,19.1,M,14.9,M,,*55\r'
b'|app=EXAMPLE_APP|device_id=LASS-Example|tick=50326497|date=15/7/15|time=12:29:20|device=LinkItONE|values=0.00,66.00,1.00,840.41,2795.52|gps=$GPGGA,122920.000,2448.8725,N,12059.5395,E,1,17,0.62,20.6,M,14.9,M,,*5B\r'
b'|app=EXAMPLE_APP|device_id=LASS-Example|tick=50362490|date=15/7/15|time=12:29:57|device=LinkItONE|values=0.00,66.00,1.00,840.41,5774.72|gps=$GPGGA,122957.000,2448.8166,N,12059.4386,E,1,16,0.66,17.7,M,14.9,M,,*59\r'
b'|app=EXAMPLE_APP|device_id=LASS-Example|tick=50396753|date=15/7/15|time=12:30:31|device=LinkItONE|values=0.00,66.00,1.00,840.41,5303.17|gps=$GPGGA,123031.000,2448.7358,N,12059.3186,E,1,16,0.69,11.3,M,14.9,M,,*59\r'
b'|app=EXAMPLE_APP|device_id=LASS-Example|tick=50431284|date=15/7/15|time=12:31:5|device=LinkItONE|values=0.00,66.00,1.00,840.41,4265.94|gps=$GPGGA,123105.000,2448.6572,N,12059.1669,E,1,14,0.82,4.2,M,14.9,M,,*66\r'
b'|app=EXAMPLE_APP|device_id=LASS-Example|tick=50466265|date=15/7/15|time=12:31:40|device=LinkItONE|values=0.00,66.00,1.00,840.41,886.05|gps=$GPGGA,123140.000,2448.6415,N,12059.1247,E,1,11,0.80,3.4,M,14.9,M,,*69\r'
b'|app=EXAMPLE_APP|device_id=LASS-Example|tick=50500491|date=15/7/15|time=12:32:14|device=LinkItONE|values=0.00,66.00,1.00,840.41,3580.93|gps=$GPGGA,123214.000,2448.6339,N,12059.1078,E,1,14,0.68,13.2,M,14.9,M,,*58\r'
b'|app=EXAMPLE_APP|device_id=LASS-Example|tick=50536665|date=15/7/15|time=12:32:50|device=LinkItONE|values=0.00,66.00,1.00,840.41,5810.38|gps=$GPGGA,123250.000,2448.5329,N,12058.9504,E,1,13,0.78,29.6,M,14.9,M,,*56\r'
b'|app=EXAMPLE_APP|device_id=LASS-Example|tick=50570262|date=15/7/15|time=12:33:24|device=LinkItONE|values=0.00,66.00,1.00,840.41,3891.88|gps=$GPGGA,123324.000,2448.4367,N,12058.8022,E,1,15,0.69,48.1,M,14.9,M,,*59\r'
b'|app=EXAMPLE_APP|device_id=LASS-Example|tick=50604521|date=15/7/15|time=12:33:58|device=LinkItONE|values=0.00,66.00,1.00,840.41,6038.01|gps=$GPGGA,123358.000,2448.4240,N,12058.7754,E,1,17,0.63,52.8,M,14.9,M,,*55\r'
b'|app=EXAMPLE_APP|device_id=LASS-Example|tick=50639329|date=15/7/15|time=12:34:33|device=LinkItONE|values=0.00,66.00,1.00,840.41,5690.82|gps=$GPGGA,123433.000,2448.3459,N,12058.6553,E,1,14,0.79,43.3,M,14.9,M,,*51\r'
b'|app=EXAMPLE_APP|device_id=LASS-Example|tick=50673504|date=15/7/15|time=12:35:7|device=LinkItONE|values=0.00,66.00,1.00,840.41,5385.69|gps=$GPGGA,123507.000,2448.2851,N,12058.5575,E,1,14,0.74,33.5,M,14.9,M,,*59\r'
b'|app=EXAMPLE_APP|device_id=LASS-Example|tick=50707374|date=15/7/15|time=12:35:42|device=LinkItONE|values=0.00,66.00,1.00,840.41,10723.77|gps=$GPGGA,123542.000,2448.2748,N,12058.5363,E,1,15,0.69,28.0,M,14.9,M,,*5C\r'
b'|app=EXAMPLE_APP|device_id=LASS-Example|tick=50743409|date=15/7/15|time=12:36:18|device=LinkItONE|values=0.00,66.00,1.00,840.41,898.79|gps=$GPGGA,123618.000,2448.2569,N,12058.5014,E,1,16,0.66,21.8,M,14.9,M,,*5F\r'
b'|app=EXAMPLE_APP|device_id=LASS-Example|tick=50777989|date=15/7/15|time=12:36:52|device=LinkItONE|values=0.00,66.00,1.00,840.41,4068.73|gps=$GPGGA,123652.000,2448.2498,N,12058.4919,E,1,15,0.69,21.1,M,14.9,M,,*5E\r'
b'|app=EXAMPLE_APP|device_id=LASS-Example|tick=50813263|date=15/7/15|time=12:37:27|device=LinkItONE|values=0.00,66.00,1.00,856.27,787.03|gps=$GPGGA,123727.000,2448.1419,N,12058.5733,E,1,13,0.82,19.9,M,14.9,M,,*50\r'
b'|app=EXAMPLE_APP|device_id=LASS-Example|tick=50848642|date=15/7/15|time=12:38:3|device=LinkItONE|values=0.00,66.00,1.00,856.27,486.08|gps=$GPGGA,123803.000,2448.1332,N,12058.5783,E,1,15,0.69,20.0,M,14.9,M,,*5C\r'
b'|app=EXAMPLE_APP|device_id=LASS-Example|tick=50882661|date=15/7/15|time=12:38:37|device=LinkItONE|values=0.00,66.00,1.00,840.41,2102.71|gps=$GPGGA,123837.000,2448.1271,N,12058.5796,E,1,15,0.69,25.7,M,14.9,M,,*5B\r'
b'|app=EXAMPLE_APP|device_id=LASS-Example|tick=50917288|date=15/7/15|time=12:39:11|device=LinkItONE|values=0.00,66.00,1.00,840.41,7148.46|gps=$GPGGA,123911.000,2448.1233,N,12058.6825,E,1,16,0.69,27.6,M,14.9,M,,*5C\r'
b'|app=EXAMPLE_APP|device_id=LASS-Example|tick=50950901|date=15/7/15|time=12:39:45|device=LinkItONE|values=0.00,66.00,1.00,840.41,6326.74|gps=$GPGGA,123945.000,2448.1897,N,12058.8267,E,1,12,0.90,34.5,M,14.9,M,,*58\r'
b'|app=EXAMPLE_APP|device_id=LASS-Example|tick=50986432|date=15/7/15|time=12:40:20|device=LinkItONE|values=0.00,66.00,1.00,840.41,1544.14|gps=$GPGGA,124020.000,2448.1481,N,12058.9387,E,1,13,0.81,40.8,M,15.0,M,,*57\r'
b'|app=EXAMPLE_APP|device_id=LASS-Example|tick=51022572|date=15/7/15|time=12:40:57|device=LinkItONE|values=0.00,66.00,1.00,840.41,5001.00|gps=$GPGGA,124057.000,2448.0906,N,12059.1220,E,1,14,0.74,46.9,M,15.0,M,,*5B\r'
b'|app=EXAMPLE_APP|device_id=LASS-Example|tick=51058159|date=15/7/15|time=12:41:33|device=LinkItONE|values=0.00,66.00,1.00,856.27,594.23|gps=$GPGGA,124133.000,2448.0695,N,12059.1953,E,1,15,0.69,53.0,M,15.0,M,,*52\r'
b'|app=EXAMPLE_APP|device_id=LASS-Example|tick=51092740|date=15/7/15|time=12:42:7|device=LinkItONE|values=0.00,66.00,1.00,840.41,1594.83|gps=$GPGGA,124207.000,2448.0695,N,12059.1953,E,1,14,0.73,53.0,M,15.0,M,,*5C\r'
b'|app=EXAMPLE_APP|device_id=LASS-Example|tick=51127625|date=15/7/15|time=12:42:42|device=LinkItONE|values=0.00,66.00,1.00,840.41,1137.18|gps=$GPGGA,124242.000,2448.0142,N,12059.3601,E,1,15,0.73,60.1,M,15.0,M,,*5A\r'
b'|app=EXAMPLE_APP|device_id=LASS-Example|tick=51162737|date=15/7/15|time=12:43:17|device=LinkItONE|values=0.00,66.00,1.00,840.41,1748.25|gps=$GPGGA,124317.000,2447.9559,N,12059.5477,E,1,14,0.73,69.9,M,15.0,M,,*56\r'
b'|app=EXAMPLE_APP|device_id=LASS-Example|tick=51198545|date=15/7/15|time=12:43:53|device=LinkItONE|values=0.00,66.00,1.00,840.41,2821.72|gps=$GPGGA,124353.000,2447.9724,N,12059.6357,E,1,15,0.69,59.5,M,15.0,M,,*5D\r'
b'|app=EXAMPLE_APP|device_id=LASS-Example|tick=51232606|date=15/7/15|time=12:44:27|device=LinkItONE|values=0.00,66.00,1.00,840.41,1604.93|gps=$GPGGA,124427.000,2448.0080,N,12059.5977,E,1,12,0.85,41.9,M,15.0,M,,*5D\r'
